City_ID,City,Lat,Lng,Max Temp,Humidity,Cloudiness,Wind Speed,Country,Date
0,barrow,71.2906,-156.7887,-28.99,76,100,2.57,US,1675617729
1,faanui,-16.4833,-151.75,27.63,73,53,7.02,PF,1675617729
2,nome,64.5011,-165.4064,-7.96,79,100,4.63,US,1675617453
3,bansud,12.865,121.4564,23.46,93,100,2.19,PH,1675617730
4,bethel,41.3712,-73.414,6.51,47,0,1.34,US,1675617730
5,castro,-24.7911,-50.0119,24.14,62,74,3.18,BR,1675617731
6,tasiilaq,65.6145,-37.6368,-1.91,74,100,6.63,GL,1675617731
7,turukhansk,65.8167,87.9833,-16.38,98,98,1.15,RU,1675617731
8,ouahigouya,13.5828,-2.4216,35.75,8,17,3.29,BF,1675617732
9,karratha,-20.7377,116.8463,31.06,55,12,6.75,AU,1675617559
10,caravelas,-17.7125,-39.2481,30.32,60,1,5.81,BR,1675617732
11,puerto ayora,-0.7393,-90.3518,29.98,86,44,4.02,EC,1675617555
12,upernavik,72.7868,-56.1549,-25.59,97,99,2.82,GL,1675617492
13,albany,42.6001,-73.9662,4.34,52,100,2.24,US,1675617494
14,nikolskoye,59.7035,30.7861,-6.06,84,100,3.3,RU,1675617536
15,rikitea,-23.1203,-134.9692,25.88,75,8,7.17,PF,1675617453
16,aklavik,68.2191,-135.0107,-44.0,66,20,1.54,CA,1675617733
17,nazarovo,56.0064,90.3914,-23.47,100,67,1.06,RU,1675617734
18,winneba,5.3511,-0.6231,28.47,75,100,6.02,GH,1675617734
19,saldanha,-33.0117,17.9442,23.03,85,30,9.55,ZA,1675617735
20,kapaa,22.0752,-159.319,23.18,92,100,5.66,US,1675617735
21,butaritari,3.0707,172.7902,26.93,82,84,8.08,KI,1675617516
22,storsteinnes,69.2408,19.2344,2.36,99,100,2.68,NO,1675617735
23,ushuaia,-54.8,-68.3,6.81,65,75,14.4,AR,1675617442
24,narsaq,60.9167,-46.05,-6.88,83,100,2.15,GL,1675617535
25,yellowknife,62.456,-114.3525,-26.71,76,100,4.12,CA,1675617632
26,torbay,47.6666,-52.7314,-3.12,77,75,10.8,CA,1675617736
27,san patricio,28.017,-97.5169,23.93,71,0,1.76,US,1675617736
28,qaanaaq,77.484,-69.3632,-19.36,64,0,3.99,GL,1675617737
29,punta arenas,-53.15,-70.9167,11.06,50,0,14.92,CL,1675617737
30,joao pinheiro,-17.7425,-46.1725,28.49,55,24,2.17,BR,1675617737
31,kudahuvadhoo,2.6708,72.8944,26.82,73,72,0.59,MV,1675617738
32,codrington,-38.2667,141.9667,13.17,87,43,2.64,AU,1675617646
33,ambilobe,-13.2,49.05,23.87,94,100,0.69,MG,1675617738
34,rani,25.3503,73.3089,20.51,27,0,2.65,IN,1675617557
35,comodoro rivadavia,-45.8667,-67.5,22.92,35,0,4.63,AR,1675617739
36,hobart,-42.8794,147.3294,14.47,77,95,3.09,AU,1675617739
37,breves,-1.6822,-50.4803,29.74,66,99,1.44,BR,1675617740
38,omboue,-1.5746,9.2618,26.84,81,96,2.91,GA,1675617442
39,lata,40.1629,-8.3327,14.24,52,0,2.98,PT,1675617740
40,goderich,43.7501,-81.7165,3.84,75,100,6.69,CA,1675617740
41,busselton,-33.65,115.3333,18.8,85,5,6.67,AU,1675617741
42,hilo,19.7297,-155.09,22.38,95,100,2.57,US,1675617472
43,port elizabeth,-33.918,25.5701,26.17,92,75,10.8,ZA,1675617741
44,touros,-5.1989,-35.4608,29.89,62,80,5.86,BR,1675617451
45,kodiak,57.79,-152.4072,1.73,100,100,14.4,US,1675617742
46,mar del plata,-38.0023,-57.5575,31.57,49,40,8.75,AR,1675617577
47,lebu,-37.6167,-73.65,19.09,75,28,7.82,CL,1675617742
48,mataura,-46.1927,168.8643,14.15,87,99,4.68,NZ,1675617743
49,soyo,-6.1349,12.3689,26.14,81,100,2.78,AO,1675617601
50,longyearbyen,78.2186,15.6401,-5.09,74,40,20.58,SJ,1675617563
51,norman wells,65.282,-126.8329,-34.98,68,40,1.03,CA,1675617563
52,saint-philippe,-21.3585,55.7679,26.77,86,87,4.48,RE,1675617744
53,bredasdorp,-34.5322,20.0403,22.44,68,85,4.86,ZA,1675617744
54,bluff,-46.6,168.3333,15.46,82,99,12.84,NZ,1675617534
55,victoria,22.2855,114.1577,19.41,88,85,1.79,HK,1675617493
56,ilulissat,69.2167,-51.1,-15.99,72,75,4.63,GL,1675617745
57,sitka,57.0531,-135.33,1.94,87,100,3.6,US,1675617580
58,south river,40.4465,-74.386,8.6,45,100,1.34,US,1675617745
59,skeldon,5.8833,-57.1333,26.05,84,98,4.08,GY,1675617745
60,chopda,21.25,75.3,23.63,24,6,3.03,IN,1675617746
61,cape town,-33.9258,18.4232,23.4,76,20,8.75,ZA,1675617746
62,carnarvon,-24.8667,113.6333,25.05,76,2,7.81,AU,1675617659
63,beringovskiy,63.05,179.3167,-28.67,93,99,5.33,RU,1675617747
64,shambu,9.5667,37.1,15.62,15,62,1.28,ET,1675617747
65,uyemskiy,64.4743,40.8524,-9.97,92,100,3.0,RU,1675617747
66,arraial do cabo,-22.9661,-42.0278,32.98,58,20,4.12,BR,1675617491
67,sao filipe,14.8961,-24.4956,22.55,56,19,4.76,CV,1675617545
68,new norfolk,-42.7826,147.0587,14.28,62,95,0.89,AU,1675617748
69,bartica,6.4,-58.6167,25.98,88,92,2.82,GY,1675617748
70,atuona,-9.8,-139.0333,25.73,76,9,7.6,PF,1675617748
71,mardin,37.3131,40.7436,3.59,93,100,6.17,TR,1675617749
72,hithadhoo,-0.6,73.0833,27.35,70,66,4.92,MV,1675617582
73,dingle,10.9995,122.6711,23.42,92,100,3.29,PH,1675617749
74,avarua,-21.2078,-159.775,27.03,83,40,5.66,CK,1675617749
75,tuatapere,-46.1333,167.6833,14.53,92,97,5.52,NZ,1675617750
76,pirayu,-25.4833,-57.2333,32.85,24,91,2.56,PY,1675617750
77,finote selam,10.7,37.2667,20.13,17,81,1.83,ET,1675617750
78,severo-kurilsk,50.6789,156.125,-4.47,79,94,3.59,RU,1675617751
79,souillac,-20.5167,57.5167,26.09,83,96,5.24,MU,1675617636
80,hermanus,-34.4187,19.2345,21.0,79,97,3.91,ZA,1675617751
81,aurillac,44.9167,2.45,4.27,67,0,3.09,FR,1675617751
82,port blair,11.6667,92.75,27.02,83,40,1.03,IN,1675617709
83,tuktoyaktuk,69.4541,-133.0374,-43.0,66,20,1.03,CA,1675617571
84,ibra,22.6906,58.5334,23.65,40,10,1.24,OM,1675617752
85,muros,42.7762,-9.0603,15.93,62,0,2.08,ES,1675617752
86,talnakh,69.4865,88.3972,-17.11,96,100,1.58,RU,1675617753
87,tiksi,71.6872,128.8694,-34.0,100,100,1.43,RU,1675617535
88,yantal,56.8471,105.2542,-12.45,97,100,1.52,RU,1675617682
89,jamestown,42.097,-79.2353,7.77,52,0,11.32,US,1675617754
90,chapais,49.7834,-74.8492,-13.12,84,100,3.4,CA,1675617574
91,provideniya,64.3833,-173.3,-17.36,96,97,4.43,RU,1675617755
92,jieshou,33.2634,115.3611,8.67,59,100,1.17,CN,1675617755
93,belmonte,-15.8631,-38.8828,29.83,61,4,5.31,BR,1675617755
94,sambava,-14.2667,50.1667,25.26,89,100,3.74,MG,1675617756
95,igualada,41.581,1.6172,12.84,58,0,1.34,ES,1675617756
96,yarada,17.65,83.2667,21.18,100,2,1.03,IN,1675617704
97,chokurdakh,70.6333,147.9167,-39.07,100,98,1.61,RU,1675617509
98,santa rosa del sur,7.9644,-74.0544,31.21,39,72,1.63,CO,1675617757
99,tautira,-17.7333,-149.15,27.75,73,88,7.17,PF,1675617512
100,cabra,37.4725,-4.4421,14.99,40,0,1.31,ES,1675617645
101,east london,-33.0153,27.9116,25.52,83,0,4.63,ZA,1675617757
102,axim,4.8699,-2.2405,28.22,76,91,4.86,GH,1675617757
103,bengkulu,-3.8004,102.2655,23.82,90,99,2.8,ID,1675617758
104,vaini,-21.2,-175.2,26.37,76,60,3.44,TO,1675617758
105,silver city,32.7701,-108.2803,15.17,20,0,2.68,US,1675617496
106,dikson,73.5069,80.5464,-19.82,97,100,0.78,RU,1675617758
107,saint-augustin,51.226,-58.6502,-16.95,66,97,4.68,CA,1675617593
108,cabo san lucas,22.8909,-109.9124,26.45,48,0,3.6,MX,1675617759
109,praia,14.9215,-23.5087,25.3,47,20,9.26,CV,1675617759
110,olavarria,-36.8927,-60.3225,29.98,30,35,3.35,AR,1675617760
111,san jose de rio tinto,14.9333,-85.7,30.76,41,11,2.55,HN,1675617566
112,itoman,26.1247,127.6694,20.21,88,75,3.09,JP,1675617707
113,san jeronimo,-11.9472,-75.2829,15.06,55,94,1.63,PE,1675617760
114,loknya,56.83,30.1467,-10.31,98,100,1.5,RU,1675617761
115,gigmoto,13.7796,124.39,25.41,89,99,4.69,PH,1675617661
116,fukue,32.6881,128.8419,10.02,50,81,3.31,JP,1675617761
117,dudinka,69.4058,86.1778,-16.88,99,96,1.21,RU,1675617656
118,allanridge,-27.7543,26.6438,26.65,30,30,1.64,ZA,1675617762
119,saint anthony,45.0205,-93.218,-2.28,73,0,5.14,US,1675617762
120,buraydah,26.326,43.975,18.25,25,79,3.55,SA,1675617762
121,multan,30.1956,71.4753,15.94,67,1,0.0,PK,1675617762
122,nanortalik,60.1432,-45.2371,-4.27,57,99,6.05,GL,1675617763
123,tongliao,43.6125,122.2653,-10.52,73,9,1.28,CN,1675617763
124,pinheiro,-2.5214,-45.0825,28.55,75,93,2.5,BR,1675617763
125,pochutla,15.7432,-96.4661,30.9,39,0,2.82,MX,1675617764
126,hirara,24.8,125.2833,21.78,80,100,6.59,JP,1675617556
127,alekseyevskaya,50.2896,42.1845,-6.22,96,94,2.3,RU,1675617764
128,mount darwin,-16.7725,31.5838,20.89,90,94,0.88,ZW,1675617765
129,lagoa,39.05,-27.9833,15.29,84,79,9.19,PT,1675617765
130,toro,4.6117,-76.0814,27.38,57,50,0.55,CO,1675617765
131,lowestoft,52.4752,1.7516,6.14,82,100,5.35,GB,1675617766
132,hofn,64.2539,-15.2082,7.34,99,100,11.74,IS,1675617634
133,bam,29.106,58.357,12.89,33,0,1.64,IR,1675617766
134,barrhead,55.7992,-4.3929,7.12,82,75,4.47,GB,1675617705
135,chalmette,29.9427,-89.9634,20.0,61,0,2.68,US,1675617766
136,ancud,-41.8697,-73.8203,17.84,80,47,4.16,CL,1675617767
137,anadyr,64.75,177.4833,-33.72,75,0,4.0,RU,1675617584
138,cabatuan,10.8794,122.486,23.84,88,100,4.77,PH,1675617518
139,owando,-0.4819,15.8999,27.56,54,65,1.66,CG,1675617767
140,kozhanka,49.9793,29.7381,-3.7,96,99,4.77,UA,1675617768
141,rio cuarto,-33.1307,-64.3499,31.3,42,20,4.63,AR,1675617768
142,gwadar,25.1216,62.3254,21.88,75,1,7.04,PK,1675617768
143,alofi,-19.0595,-169.9187,23.94,94,100,1.54,NU,1675617769
144,olinda,-8.0089,-34.8553,29.85,70,40,4.63,BR,1675617460
145,vanimo,-2.6741,141.3028,25.76,87,100,1.75,PG,1675617684
146,ostrovnoy,68.0531,39.5131,-15.3,97,81,4.52,RU,1675617769
147,izumo,35.3667,132.7667,-0.03,80,3,2.35,JP,1675617770
148,roald,62.5833,6.1333,6.08,81,75,5.66,NO,1675617770
149,port alfred,-33.5906,26.891,21.77,89,7,2.68,ZA,1675617770
150,qui nhon,13.7667,109.2333,22.18,88,100,1.21,VN,1675617770
151,georgetown,5.4112,100.3354,24.97,99,40,1.03,MY,1675617493
152,dunedin,-45.8742,170.5036,19.33,45,63,4.02,NZ,1675617771
153,bo phloi,14.3236,99.5161,24.77,76,59,1.55,TH,1675617771
154,kayes,14.0,-11.0,35.02,8,35,1.36,ML,1675617772
155,katsuura,35.1333,140.3,8.95,81,19,2.61,JP,1675617772
156,san vicente,-26.6167,-54.1333,30.42,25,99,2.38,AR,1675617772
157,kimbe,-5.5502,150.1429,24.39,91,96,1.43,PG,1675617772
158,mayskiy,47.6931,40.1025,-0.33,90,100,5.39,RU,1675617773
159,coahuayana,18.7333,-103.6833,30.39,33,0,2.18,MX,1675617773
160,laguna,38.421,-121.4238,11.7,82,20,6.69,US,1675617773
161,sola,-13.8833,167.55,28.51,72,100,10.16,VU,1675617774
162,tashtagol,52.7657,87.8894,-16.37,100,95,1.31,RU,1675617774
163,lamu,-2.2717,40.902,26.12,82,77,6.43,KE,1675617774
164,sabzevar,36.2126,57.6819,6.13,33,68,0.83,IR,1675617775
165,loreto,22.2667,-101.9667,19.58,19,0,4.31,MX,1675617776
166,pandan,14.0453,124.1694,25.29,90,100,4.76,PH,1675617776
167,mount gambier,-37.8333,140.7667,11.22,94,41,1.84,AU,1675617777
168,deputatskiy,69.3,139.9,-30.78,99,100,1.51,RU,1675617738
169,kawalu,-7.3817,108.2082,23.13,89,100,0.78,ID,1675617777
170,iranshahr,27.2025,60.6848,18.19,52,0,0.0,IR,1675617777
171,alexandria,31.2156,29.9553,16.55,45,63,9.23,EG,1675617525
172,cockburn town,21.4612,-71.1419,26.98,65,40,7.72,TC,1675617778
173,pangnirtung,66.1451,-65.7125,-33.0,68,100,1.03,CA,1675617778
174,bereda,43.2686,-7.5406,8.97,88,4,3.48,ES,1675617778
175,kurilsk,45.2333,147.8833,-3.67,66,99,7.36,RU,1675617779
176,flin flon,54.7682,-101.865,-10.09,79,100,4.12,CA,1675617779
177,grand gaube,-20.0064,57.6608,26.88,77,74,2.24,MU,1675617779
178,haines junction,60.7522,-137.5108,-12.03,85,97,0.51,CA,1675617780
179,tateyama,34.9833,139.8667,9.71,75,6,2.79,JP,1675617780
180,fuxin,42.0156,121.6589,-5.14,50,97,2.24,CN,1675617780
181,panama city,8.9936,-79.5197,32.32,50,20,8.75,PA,1675617581
182,korla,41.7597,86.1469,-1.1,68,100,1.18,CN,1675617561
183,itarema,-2.9248,-39.9167,29.26,65,85,5.92,BR,1675617781
184,kolpashevo,58.3131,82.9089,-18.77,100,100,1.39,RU,1675617781
185,chadiza,-14.0678,32.4392,19.5,91,98,1.23,ZM,1675617782
186,esperance,-33.8667,121.9,20.41,67,29,9.59,AU,1675617571
187,port hedland,-20.3167,118.5667,27.03,89,5,2.57,AU,1675617782
188,cayenne,4.9333,-52.3333,22.02,100,75,1.03,GF,1675617782
189,matamoros,25.5333,-103.25,17.28,38,0,2.06,MX,1675617783
190,lufilufi,-13.8745,-171.5986,24.88,77,100,6.2,WS,1675617783
191,mogadishu,2.0371,45.3438,25.24,80,56,9.27,SO,1675617783
192,tual,-5.6667,132.75,26.77,83,100,8.19,ID,1675617784
193,giresun,40.5,38.5,-9.94,94,100,2.2,TR,1675617784
194,kiunga,-6.1219,141.2906,22.79,100,100,0.8,PG,1675617784
195,lhokseumawe,5.1801,97.1507,24.99,85,100,1.47,ID,1675617785
196,hambantota,6.1241,81.1185,25.18,84,100,5.91,LK,1675617785
197,raudeberg,61.9875,5.1352,6.04,65,75,7.14,NO,1675617785
198,labuhan,-6.8844,112.2051,25.62,84,100,3.05,ID,1675617786
199,malanje,-9.5402,16.341,18.33,89,100,1.15,AO,1675617510
200,northam,51.0333,-4.2167,7.01,80,90,2.72,GB,1675617786
201,lukaya,-0.1489,31.8748,21.55,59,75,0.98,UG,1675617786
202,khatanga,71.9667,102.5,-33.99,95,98,2.37,RU,1675617579
203,ribeira grande,38.5167,-28.7,17.22,82,40,6.26,PT,1675617787
204,bintulu,3.1667,113.0333,25.23,94,20,1.54,MY,1675617787
205,kahului,20.8947,-156.47,23.25,90,20,3.58,US,1675617787
206,saskylakh,71.9167,114.0833,-40.01,100,100,1.75,RU,1675617580
207,segou,13.4317,-6.2157,34.11,9,22,3.84,ML,1675617788
208,katangli,51.7102,143.2326,-19.75,95,100,3.49,RU,1675617788
209,jiuquan,39.7432,98.5174,-3.0,42,4,1.23,CN,1675617788
210,kaitangata,-46.2817,169.8464,12.35,93,96,2.3,NZ,1675617789
211,ahipara,-35.1667,173.1667,17.47,92,97,3.42,NZ,1675617789
212,narasapur,16.45,81.6667,20.4,89,1,1.35,IN,1675617789
213,cherskiy,68.75,161.3,-40.94,100,100,2.21,RU,1675617790
214,bangassou,4.7413,22.8184,28.31,18,9,0.8,CF,1675617790
215,nantucket,41.2835,-70.0995,8.06,72,0,7.72,US,1675617695
216,havoysund,70.9963,24.6622,-1.87,97,100,19.11,NO,1675617790
217,chuy,-33.6971,-53.4616,25.9,49,12,4.96,UY,1675617791
218,molina,-35.1167,-71.2833,25.85,50,1,2.06,CL,1675617791
219,constitucion,-35.3333,-72.4167,20.79,70,46,3.54,CL,1675617791
220,loa janan,-0.583,117.095,23.05,98,78,0.47,ID,1675617792
221,te anau,-45.4167,167.7167,13.95,91,100,3.85,NZ,1675617645
222,hinton,53.4001,-117.5857,-2.42,90,100,3.77,CA,1675617792
223,necochea,-38.5473,-58.7368,31.57,27,51,2.19,AR,1675617792
224,coihaique,-45.5752,-72.0662,21.97,35,20,3.6,CL,1675617706
225,plettenberg bay,-34.0527,23.3716,22.91,78,50,3.31,ZA,1675617721
226,lima duarte,-21.8425,-43.7931,29.01,61,33,2.87,BR,1675617793
227,vung tau,10.346,107.0843,25.15,80,2,8.05,VN,1675617793
228,thompson,55.7435,-97.8558,-17.91,78,100,1.03,CA,1675617551
229,klaeng,12.7797,101.6483,27.23,95,14,1.75,TH,1675617794
230,paracuru,-3.41,-39.0306,28.39,66,93,5.21,BR,1675617794
231,clones,54.1833,-7.2333,4.91,81,66,4.17,IE,1675617794
232,srostki,52.4189,85.7022,-18.35,100,70,2.15,RU,1675617795
233,caraballeda,10.6112,-66.8522,32.04,68,20,2.06,VE,1675617795
234,ust-uda,54.1742,103.0304,-23.61,100,100,0.59,RU,1675617795
235,guerrero negro,27.9769,-114.0611,16.62,70,0,5.34,MX,1675617695
236,spornoye,50.8448,37.2913,-4.86,94,100,3.89,RU,1675617796
237,brae,60.3964,-1.353,6.91,79,100,9.88,GB,1675617796
238,birjand,32.8663,59.2211,4.26,52,0,0.0,IR,1675617641
239,inuvik,68.3499,-133.7218,-35.52,68,20,0.0,CA,1675617797
240,lesnoy,57.6198,63.0784,-15.11,99,99,1.17,RU,1675617797
241,namibe,-15.1961,12.1522,23.29,73,59,3.98,AO,1675617797
242,geraldton,-28.7667,114.6,23.23,73,100,5.14,AU,1675617798
243,hushitai,41.9322,123.5114,-5.05,62,80,3.47,CN,1675617798
244,srednekolymsk,67.45,153.6833,-37.0,100,100,2.85,RU,1675617695
245,sturgeon falls,46.3646,-79.9326,-3.02,99,100,0.46,CA,1675617798
246,jasper,37.2001,-94.3502,11.8,52,0,1.54,US,1675617799
247,gdynia,54.5189,18.5319,-0.62,83,75,1.54,PL,1675617800
248,kamaishi,39.2667,141.8833,-0.76,77,12,2.71,JP,1675617800
249,werda,-25.2667,23.2833,30.92,32,58,3.21,BW,1675617801
250,bambous virieux,-20.3428,57.7575,26.79,80,76,5.57,MU,1675617801
251,gorontalo,0.5412,123.0595,23.74,87,100,1.6,ID,1675617802
252,piney green,34.716,-77.3202,17.96,50,100,1.54,US,1675617802
253,amahai,-3.3333,128.9167,25.06,85,100,3.34,ID,1675617802
254,lavrentiya,65.5833,-171.0,-20.23,96,100,3.75,RU,1675617623
255,peski,55.2163,38.7626,-5.29,97,99,2.54,RU,1675617803
256,luwuk,-0.9516,122.7875,25.05,84,88,2.21,ID,1675617570
257,fort wellington,6.4,-57.6,26.56,79,70,5.51,GY,1675617504
258,port keats,-14.25,129.55,26.37,77,29,0.63,AU,1675617803
259,krasnaya polyana,56.242,51.1442,-13.99,99,100,1.19,RU,1675617804
260,egvekinot,66.3167,-179.1667,-29.64,87,100,5.25,RU,1675617804
261,udachnyy,66.4167,112.4,-43.08,100,81,0.97,RU,1675617804
262,riyadh,24.6877,46.7219,19.08,35,6,3.02,SA,1675617587
263,ponta do sol,32.6667,-17.1,18.89,48,29,1.72,PT,1675617648
264,najran,17.4924,44.1277,22.36,28,100,1.31,SA,1675617577
265,yar-sale,66.8333,70.8333,-20.93,99,97,2.98,RU,1675617805
266,scottsbluff,41.8666,-103.6672,2.76,72,0,3.09,US,1675617805
267,vila,42.0304,-8.1588,10.39,46,0,1.72,PT,1675617805
268,alpinopolis,-20.8636,-46.3881,25.44,72,100,3.11,BR,1675617806
269,ambulu,-8.345,113.6058,24.4,88,100,1.74,ID,1675617571
270,eureka,40.8021,-124.1637,9.34,93,96,2.68,US,1675617806
271,san cristobal,7.7669,-72.225,25.1,61,49,3.69,VE,1675617508
272,digapahandi,19.3667,84.5833,18.99,62,2,1.36,IN,1675617563
273,quthing,-30.4,27.7003,23.68,37,57,1.66,LS,1675617807
274,kailua,21.4022,-157.7394,23.14,86,58,1.79,US,1675617807
275,cepelare,41.7333,24.6833,-7.34,93,99,3.95,BG,1675617807
276,fortuna,40.5982,-124.1573,9.19,94,75,0.45,US,1675617808
277,bolobo,-2.1667,16.2333,25.53,75,79,3.22,CD,1675617808
278,olafsvik,64.8945,-23.7142,6.39,91,93,10.53,IS,1675617808
279,caborca,30.5838,-111.101,20.78,18,0,1.11,MX,1675617808
280,sao joao da barra,-21.6403,-41.0511,35.05,73,13,4.19,BR,1675617809
281,inhambane,-23.865,35.3833,25.55,77,3,5.89,MZ,1675617651
282,lompoc,34.6391,-120.4579,14.22,93,40,6.69,US,1675617533
283,pevek,69.7008,170.3133,-39.05,100,74,1.19,RU,1675617809
284,kardymovo,54.8902,32.4311,-4.8,91,100,2.96,RU,1675617809
285,peace river,56.2501,-117.286,-2.41,96,75,3.09,CA,1675617810
286,killybegs,54.6333,-8.45,7.84,79,72,4.72,IE,1675617810
287,veraval,20.9,70.3667,22.03,55,3,4.97,IN,1675617811
288,namatanai,-3.6667,152.4333,25.58,81,99,1.41,PG,1675617811
289,aykhal,66.0,111.5,-38.22,100,56,1.28,RU,1675617811
290,las juntas,19.4167,-104.7,23.74,32,0,1.76,MX,1675617812
291,grindavik,63.8424,-22.4338,8.26,100,100,14.92,IS,1675617812
292,ketchikan,55.3422,-131.6461,3.99,93,75,1.54,US,1675617812
293,monte escobedo,22.3,-103.5833,18.38,21,5,2.48,MX,1675617813
294,aloleng,16.1307,119.7824,25.22,79,98,4.3,PH,1675617813
295,saltpond,5.2091,-1.0606,28.4,76,99,6.06,GH,1675617813
296,leningradskiy,69.3833,178.4167,-32.91,99,100,2.03,RU,1675617813
297,kattivakkam,13.2167,80.3167,25.05,76,79,3.41,IN,1675617814
298,quesnel,52.9999,-122.5029,4.28,75,100,3.09,CA,1675617814
299,bogale,16.2833,95.4,22.8,57,9,3.18,MM,1675617814
300,kieta,-6.2167,155.6333,25.54,85,100,1.29,PG,1675617815
301,kavieng,-2.5744,150.7967,27.49,73,100,0.96,PG,1675617792
302,avera,33.194,-82.5271,13.54,61,100,0.53,US,1675617815
303,boulder city,35.9786,-114.8325,15.52,33,75,2.06,US,1675617815
304,chumikan,54.7183,135.315,-21.1,89,86,7.03,RU,1675617816
305,bilibino,68.0546,166.4372,-32.56,100,100,0.92,RU,1675617816
306,sibu,2.3,111.8167,24.17,100,40,1.03,MY,1675617816
307,kumluca,36.3703,30.2869,7.46,85,98,3.45,TR,1675617817
308,nuuk,64.1835,-51.7216,-10.66,79,75,3.09,GL,1675617744
309,kochubey,44.3861,46.5825,0.18,80,98,5.4,RU,1675617817
310,nyurba,63.2842,118.3319,-47.84,100,64,1.52,RU,1675617817
311,hailar,49.2,119.7,-27.53,100,91,2.43,CN,1675617818
312,clyde river,70.4692,-68.5914,-24.87,58,100,7.2,CA,1675617818
313,vestmanna,62.1564,-7.1664,6.51,100,100,8.75,FO,1675617564
314,roma,43.2128,-75.4557,5.46,50,0,3.09,US,1675617819
315,gotsu,35.0,132.2167,3.75,71,3,2.7,JP,1675617819
316,saint-georges,12.0564,-61.7485,28.82,70,75,10.29,GD,1675617819
317,mahebourg,-20.4081,57.7,26.81,80,81,5.68,MU,1675617820
318,coquimbo,-29.9533,-71.3436,22.85,60,0,6.17,CL,1675617568
319,kurdzhinovo,43.9884,40.9552,-2.86,90,94,0.41,RU,1675617820
320,contamana,-7.3333,-75.0167,29.6,52,88,1.57,PE,1675617790
321,oyama,36.3,139.8,6.99,59,100,2.91,JP,1675617820
322,grand-santi,4.25,-54.3833,25.23,96,100,1.75,GF,1675617821
323,carutapera,-1.195,-46.02,29.11,70,49,4.12,BR,1675617665
324,bagdarin,54.4333,113.6,-23.52,93,85,1.87,RU,1675617822
325,ruidoso,33.3317,-105.673,13.92,19,13,6.69,US,1675617822
326,puntarenas,9.9763,-84.8384,30.87,45,8,2.77,CR,1675617585
327,stornoway,58.2093,-6.3865,7.18,84,75,12.86,GB,1675617823
328,adrar,20.5022,-10.0711,22.34,17,68,4.92,MR,1675617823
329,port victoria,0.0939,33.9756,24.02,69,65,4.41,KE,1675617823
330,faya,18.3851,42.4509,14.06,59,98,2.43,SA,1675617824
331,pathein,16.7833,94.7333,21.29,63,6,3.4,MM,1675617824
332,asau,46.4333,26.4,-4.29,89,94,2.66,RO,1675617824
333,amapa,1.0,-52.0,26.51,89,99,1.34,BR,1675617825
334,terrace bay,48.7834,-87.1,-12.91,82,100,3.96,CA,1675617550
335,lorengau,-2.0226,147.2712,27.07,79,100,0.83,PG,1675617537
336,tagusao,9.1924,117.8141,25.28,88,72,2.95,PH,1675617825
337,kununurra,-15.7667,128.7333,25.99,89,68,0.0,AU,1675617592
338,teofilo otoni,-17.8575,-41.5053,33.37,45,0,1.2,BR,1675617826
339,alta floresta,-9.8756,-56.0861,29.9,70,75,1.03,BR,1675617826
340,pasir gudang,1.4584,103.8805,25.14,94,75,1.03,MY,1675617826
341,parabel,58.6978,81.4825,-18.32,100,97,1.9,RU,1675617827
342,talavera de la reina,39.9635,-4.8308,12.15,48,0,2.81,ES,1675617827
343,tokur,53.1333,132.9,-28.6,100,100,1.31,RU,1675617827
344,bargteheide,53.7333,10.2667,2.17,86,80,0.45,DE,1675617828
345,vila franca do campo,37.7167,-25.4333,16.23,72,0,3.19,PT,1675617655
346,nishihara,26.1842,127.7558,19.81,88,75,3.09,JP,1675617586
347,general pico,-35.6566,-63.7568,34.69,16,6,5.38,AR,1675617828
348,los llanos de aridane,28.6585,-17.9182,17.86,65,20,4.63,ES,1675617828
349,tarko-sale,64.9225,77.785,-23.82,100,95,1.96,RU,1675617829
350,payo,-3.7508,103.6372,21.22,80,89,1.05,ID,1675617829
351,rio grande,-32.035,-52.0986,23.06,71,66,6.38,BR,1675617829
352,samarai,-10.6167,150.6667,26.4,85,100,6.73,PG,1675617792
353,ballinrobe,53.6333,-9.2333,9.86,88,65,4.07,IE,1675617830
354,cidreira,-30.1811,-50.2056,28.0,46,14,6.56,BR,1675617830
355,santa rosa,14.3122,121.1114,26.17,81,76,3.92,PH,1675617830
356,ginda,30.6945,78.4932,7.21,38,29,2.6,IN,1675617831
357,sorada,19.75,84.4333,18.92,42,0,1.29,IN,1675617831
358,mumford,5.2618,-0.759,27.77,79,100,5.87,GH,1675617831
359,hervey bay,-25.2986,152.8535,25.55,89,97,4.86,AU,1675617832
360,teya,60.3778,92.6267,-16.31,99,99,1.88,RU,1675617832
361,alice springs,-23.7,133.8833,13.75,82,0,0.51,AU,1675617832
362,gerash,27.6652,54.1371,13.08,43,0,2.23,IR,1675617833
363,elliot,-31.3333,27.85,17.74,74,68,0.84,ZA,1675617833
364,russell,32.3502,-85.1999,15.6,58,0,0.0,US,1675617833
365,nuzvid,16.7833,80.85,20.17,85,0,1.83,IN,1675617834
366,bathsheba,13.2167,-59.5167,29.34,65,40,10.8,BB,1675617834
367,nevelsk,46.6733,141.8633,-8.42,72,99,2.1,RU,1675617834
368,baykit,61.67,96.37,-12.68,98,100,0.98,RU,1675617835
369,djougou,9.7085,1.666,35.62,8,99,3.16,BJ,1675617835
370,klaksvik,62.2266,-6.589,7.51,92,100,14.98,FO,1675617835
371,abu dhabi,24.4667,54.3667,21.01,78,0,1.54,AE,1675617812
372,tupelo,34.2576,-88.7034,14.16,58,20,5.66,US,1675617548
373,san matias,-16.3667,-58.4,30.08,67,85,1.8,BO,1675617836
374,remedios,22.4947,-79.5458,30.51,56,1,4.66,CU,1675617836
375,kuusamo,65.9667,29.1833,-10.98,85,100,2.06,FI,1675617586
376,yarmouth,41.7057,-70.2286,9.08,69,0,10.8,US,1675617836
377,manono,-7.3,27.4167,22.16,83,100,0.99,CD,1675617649
378,parthenay,46.6667,-0.4167,9.41,77,59,5.43,FR,1675617837
379,rio gallegos,-51.6226,-69.2181,17.03,19,20,18.52,AR,1675617679
380,pemagatsel,27.0319,91.4266,6.87,62,1,2.34,BT,1675617837
381,seymchan,62.8833,152.4333,-32.16,92,92,1.85,RU,1675617837
382,caxito,-8.5785,13.6643,28.07,69,91,3.06,AO,1675617838
383,batsfjord,70.6345,29.7185,-6.04,79,75,7.72,NO,1675617696
384,vardo,70.3705,31.1107,-7.01,93,40,8.23,NO,1675617679
385,rio tercero,-32.173,-64.1141,31.56,33,0,4.11,AR,1675617838
386,portland,45.5234,-122.6762,8.78,93,100,6.71,US,1675617472
387,senanga,-16.1167,23.2667,23.39,75,99,0.9,ZM,1675617839
388,posse,-14.0931,-46.3694,29.65,49,31,1.62,BR,1675617839
389,przhevalskoye,55.5093,31.8482,-5.45,93,100,2.53,RU,1675617839
390,hue,16.4667,107.6,23.06,94,40,0.51,VN,1675617840
391,gimli,50.6336,-96.9907,-12.99,66,17,4.12,CA,1675617840
392,macklin,52.3334,-109.9348,-8.81,84,11,5.42,CA,1675617840
393,lake havasu city,34.4839,-114.3224,18.39,35,0,0.89,US,1675617840
394,komsomolskiy,40.4272,71.7189,4.4,87,100,1.03,UZ,1675617841
395,wonthaggi,-38.6044,145.5913,15.46,81,45,3.49,AU,1675617656
396,tura,25.5198,90.2201,15.48,44,0,1.19,IN,1675617841
397,doha,25.2867,51.5333,19.17,72,0,2.57,QA,1675617702
398,loum,4.7182,9.7351,29.64,59,26,2.67,CM,1675617842
399,urumqi,43.801,87.6005,-8.47,86,75,1.0,CN,1675617842
400,cap malheureux,-19.9842,57.6142,26.93,77,73,2.24,MU,1675617592
401,saint-raymond,45.467,-73.6095,-2.56,76,100,4.63,CA,1675617843
402,nebolchi,59.1239,33.3454,-12.29,99,100,1.76,RU,1675617843
403,bandarbeyla,9.4942,50.8122,24.44,72,62,7.46,SO,1675617843
404,heyang,26.1011,107.473,6.51,97,100,1.15,CN,1675617844
405,lasa,46.6166,10.7002,3.49,93,20,3.12,IT,1675617844
406,salamiyah,35.0113,37.0532,6.19,91,100,1.54,SY,1675617845
407,inta,66.0317,60.1659,-12.75,96,98,3.56,RU,1675617845
408,svetlaya,46.5389,138.3297,-11.97,82,3,2.77,RU,1675617846
409,kankon,15.0167,74.0167,24.64,66,0,2.8,IN,1675617846
410,hamilton,39.1834,-84.5333,11.06,52,100,5.66,US,1675617656
411,waingapu,-9.6567,120.2641,24.85,89,100,3.37,ID,1675617847
412,carinhanha,-14.3047,-43.765,34.07,35,1,1.51,BR,1675617847
413,port lincoln,-34.7333,135.8667,16.26,83,2,5.09,AU,1675617848
414,auki,-8.7676,160.7034,24.81,95,100,6.37,SB,1675617848
415,camargo,27.6667,-105.1667,18.56,24,0,2.2,MX,1675617848
416,tomohon,1.3346,124.8392,19.52,86,100,0.33,ID,1675617849
417,barrie,44.4001,-79.6663,3.85,70,100,3.6,CA,1675617843
418,college,64.8569,-147.8028,-26.06,76,40,0.0,US,1675617849
419,sainte-marie,-20.8968,55.5496,27.09,84,95,7.2,RE,1675617850
420,shenzhen,22.5455,114.0683,19.35,93,88,1.35,CN,1675617850
421,yulara,-25.2406,130.9889,21.54,22,0,4.32,AU,1675617850
422,mehamn,71.0357,27.8492,-4.03,80,0,6.17,NO,1675617851
423,quatre cocos,-20.2078,57.7625,26.72,80,75,5.45,MU,1675617851
424,hovd,48.0056,91.6419,-15.8,81,8,1.35,MN,1675617851
425,pa daet,19.5049,99.9924,23.65,59,36,1.12,TH,1675617852
426,fare,-16.7,-151.0167,27.25,75,19,6.53,PF,1675617852
427,kruisfontein,-34.0033,24.7314,24.94,74,12,6.9,ZA,1675617853
428,rocha,-34.4833,-54.3333,25.92,49,35,3.95,UY,1675617853
429,flinders,-34.5833,150.8552,21.21,79,96,0.89,AU,1675617853
430,tilichiki,60.4667,166.1,-29.99,94,11,3.77,RU,1675617854
431,shache,38.4167,77.2406,-2.73,77,100,2.11,CN,1675617854
432,sur,22.5667,59.5289,22.15,72,34,3.1,OM,1675617855
433,kidal,18.4411,1.4078,30.83,8,5,0.67,ML,1675617855
434,broome,42.2506,-75.833,3.94,53,0,4.63,US,1675617706
435,zyryanka,65.75,150.85,-34.98,100,100,0.21,RU,1675617569
436,porto novo,6.4965,2.6036,29.9,72,100,4.92,BJ,1675617856
437,marsh harbour,26.5412,-77.0636,23.51,77,82,9.79,BS,1675617856
438,mandurah,-32.55,115.7,22.25,87,0,3.73,AU,1675617551
439,gusau,12.1628,6.6614,33.23,10,100,4.3,NG,1675617857
440,havre-saint-pierre,50.2334,-63.5986,-16.0,78,100,5.14,CA,1675617857
441,marondera,-18.1853,31.5519,16.8,91,95,1.79,ZW,1675617857
442,shihezi,44.3,86.0333,-8.65,98,96,2.27,CN,1675617598
443,jamsa,61.8642,25.19,-1.03,95,100,3.48,FI,1675617858
444,jardim,-21.4803,-56.1381,32.1,45,37,1.12,BR,1675617571
445,bondo,3.8146,23.6866,27.74,22,28,0.4,CD,1675617858
446,old saybrook,41.2918,-72.3762,8.2,52,0,6.69,US,1675617859
447,staszow,50.5631,21.1659,-2.43,90,100,3.2,PL,1675617859
448,kalmunai,7.4167,81.8167,24.77,84,100,4.08,LK,1675617860
449,gravdal,68.1214,13.5031,3.94,56,40,5.14,NO,1675617860
450,luderitz,-26.6481,15.1594,21.36,66,15,11.62,NA,1675617658
451,arlit,18.7369,7.3853,30.0,8,11,3.79,NE,1675617655
452,lamar,33.6668,-95.5836,15.91,72,0,2.57,US,1675617861
453,kloulklubed,7.0419,134.2556,26.28,76,100,8.33,PW,1675617861
454,port hawkesbury,45.6169,-61.3485,-2.12,78,40,5.36,CA,1675617862
455,dunmore town,25.5,-76.65,24.32,76,33,9.18,BS,1675617862
456,zhigansk,66.7697,123.3711,-41.96,97,97,1.19,RU,1675617862
457,nemuro,43.3236,145.575,-4.45,80,22,4.49,JP,1675617863
458,camabatela,-8.1881,15.375,17.64,90,100,0.97,AO,1675617863
459,kirakira,-10.4544,161.9205,25.34,96,100,3.03,SB,1675617864
460,lashio,22.9333,97.75,12.54,43,33,0.93,MM,1675617864
461,sangar,63.9242,127.4739,-40.47,99,99,1.72,RU,1675617864
462,martapura,-3.4167,114.85,25.05,100,75,2.57,ID,1675617865
463,monteiro,-7.8894,-37.12,31.6,34,82,3.06,BR,1675617786
464,xai-xai,-25.0519,33.6442,25.29,75,8,4.81,MZ,1675617865
465,kurchum,48.5722,83.6542,-7.76,96,96,1.0,KZ,1675617866
466,myrtle beach,33.6891,-78.8867,11.17,81,100,4.12,US,1675617679
467,junin,-34.5838,-60.9433,31.61,39,0,3.72,AR,1675617866
468,letpadan,17.7833,95.75,19.87,42,2,2.13,MM,1675617866
469,mount isa,-20.7333,139.5,24.87,94,100,1.54,AU,1675617867
470,polyarnyy,69.1989,33.4478,-14.17,98,100,4.49,RU,1675617867
471,nueva gorgona,8.55,-79.8667,33.0,61,57,5.6,PA,1675617868
472,ndele,8.4109,20.6473,30.14,12,71,2.19,CF,1675617868
473,okmulgee,35.6234,-95.9605,12.23,46,0,2.06,US,1675617868
474,sioux lookout,50.1001,-91.917,-12.96,72,100,2.57,CA,1675617869
475,palkino,57.5409,28.0126,-9.14,92,100,2.51,RU,1675617869
476,knysna,-34.0363,23.0471,23.38,77,58,2.73,ZA,1675617869
477,buala,-8.145,159.5921,25.01,95,100,5.79,SB,1675617869
478,nouadhibou,20.931,-17.0347,22.99,28,100,7.2,MR,1675617870
479,lakes entrance,-37.8811,147.981,13.25,92,27,2.93,AU,1675617870
480,hearst,49.6835,-83.6665,-16.86,87,100,2.14,CA,1675617870
481,lincoln,40.8,-96.667,9.63,53,0,2.68,US,1675617871
482,mpika,-11.8343,31.4529,16.05,97,98,2.34,ZM,1675617871
483,jalu,29.0331,21.5482,15.59,53,77,7.75,LY,1675617871
484,sibolga,1.7427,98.7792,24.22,93,100,1.44,ID,1675617872
485,berbera,10.4396,45.0143,24.66,66,96,3.72,SO,1675617742
486,chifeng,42.2683,118.9636,-7.48,50,50,0.38,CN,1675617872
487,karwar,14.8,74.1333,24.62,66,0,3.27,IN,1675617873
488,san andres,12.5847,-81.7006,29.01,65,20,7.2,CO,1675617873
489,kismayo,-0.3582,42.5454,24.55,83,54,6.79,SO,1675617873
490,kindu,-2.95,25.95,25.57,65,100,0.77,CD,1675617874
491,hay river,60.8156,-115.7999,-18.01,78,100,6.69,CA,1675617874
492,rassvet,46.8333,40.75,0.94,82,100,4.29,RU,1675617874
493,tukrah,32.5341,20.5791,11.71,53,86,14.83,LY,1675617875
494,emerald,-23.5333,148.1667,24.63,90,100,5.7,AU,1675617875
495,garden city,42.3256,-83.331,5.38,68,75,8.75,US,1675617875
496,maaseik,51.1,5.7833,7.21,78,76,1.79,BE,1675617875
497,neiafu,-18.65,-173.9833,26.71,75,100,7.66,TO,1675617876
498,arman,59.7,150.1667,-26.27,83,83,3.74,RU,1675617876
499,wajir,1.7471,40.0573,32.16,17,92,4.72,KE,1675617580
500,saint george,37.1041,-113.5841,9.68,45,0,1.54,US,1675617877
501,husavik,66.0449,-17.3389,7.51,79,100,10.66,IS,1675617877
502,gat,31.61,34.7642,14.11,100,31,4.08,IL,1675617877
503,kaihua,23.3687,104.28,14.5,88,50,4.31,CN,1675617878
504,trat,12.5,102.5,27.71,91,50,0.53,TH,1675617878
505,san jose,37.3394,-121.895,12.25,88,40,2.06,US,1675617878
506,salalah,17.0151,54.0924,24.05,69,0,1.54,OM,1675617879
507,white settlement,32.7596,-97.4584,16.53,68,0,3.13,US,1675617879
508,aleksandrov gay,50.147,48.5704,-10.12,94,94,2.49,RU,1675617879
509,ajdabiya,30.7554,20.2263,14.18,58,28,9.55,LY,1675617880
510,mamakan,57.8161,114.0028,-16.96,96,100,0.88,RU,1675617880
511,am timan,11.0297,20.2827,31.52,10,30,1.52,TD,1675617880
512,dubbo,-32.25,148.6167,15.07,63,0,4.12,AU,1675617881
513,bureya,49.8133,129.8131,-31.5,100,71,0.36,RU,1675617881
514,iqaluit,63.7506,-68.5145,-29.06,68,75,8.23,CA,1675617881
515,hvolsvollur,63.7533,-20.2243,8.37,95,100,11.94,IS,1675617882
516,xichang,27.8964,102.2634,8.09,48,4,0.83,CN,1675617882
517,vallenar,-28.5708,-70.7581,30.62,30,0,4.22,CL,1675617882
518,maceio,-9.6658,-35.7353,30.69,66,75,6.69,BR,1675617424
519,vostok,46.4856,135.8833,-20.71,100,100,1.4,RU,1675617883
520,aswan,24.0934,32.907,20.61,21,0,3.6,EG,1675617883
521,yanam,16.7333,82.2167,21.0,82,0,1.36,IN,1675617883
522,fairbanks,64.8378,-147.7164,-26.06,76,0,0.0,US,1675617884
523,thunder bay,48.4001,-89.3168,-11.01,61,100,3.09,CA,1675617845
524,ocos,14.5094,-92.1933,31.1,64,0,3.32,GT,1675617884
525,kachug,53.9606,105.8817,-22.09,100,91,0.97,RU,1675617884
526,sisophon,13.5859,102.9737,26.97,68,12,2.55,KH,1675617885
527,tiarei,-17.5333,-149.3333,27.01,75,89,6.71,PF,1675617885
528,cairo,30.0626,31.2497,18.42,25,40,6.69,EG,1675617692
529,gloria do goita,-8.0017,-35.2928,29.08,41,72,6.41,BR,1675617886
530,gamba,-2.65,10.0,26.67,79,76,3.96,GA,1675617886
531,copiapo,-27.3667,-70.3333,24.83,37,65,4.93,CL,1675617604
532,hasaki,35.7333,140.8333,1.22,78,88,4.57,JP,1675617598
533,siavonga,-16.5382,28.7088,24.99,82,97,1.14,ZM,1675617886
